{
    "type": "FeatureCollection",
    "crs": { "type": "name", "properties": { "name": "urn:ogc:def:crs:OGC:1.3:CRS84" } },
    "features": [
    { "type": "Feature", "properties": { "id": 1, "extparkint": "Extérieur", "h_ouvert": "6h", "hfermeture": "2h", "gestion": "Ville de Montpellier", "enservice": "En Service", "pmr": "non PMR", "nom": "Esplanade Charles de Gaulle" }, "geometry": { "type": "Point", "coordinates": [ 3.881459801717262, 43.609871907026509 ] } },
    { "type": "Feature", "properties": { "id": 28, "extparkint": "Extérieur", "h_ouvert": " ", "hfermeture": " ", "gestion": "Ville de Montpellier", "enservice": "En Service", "pmr": "PMR", "nom": "Esplanade Charles de Gaulle" }, "geometry": { "type": "Point", "coordinates": [ 3.881478203400894, 43.610406415564441 ] } },
    { "type": "Feature", "properties": { "id": 20, "extparkint": "Extérieur", "h_ouvert": " ", "hfermeture": " ", "gestion": "Ville de Montpellier", "enservice": "En Service", "pmr": "PMR", "nom": "MPT VOLTAIRE" }, "geometry": { "type": "Point", "coordinates": [ 3.88869972585726, 43.603864403573169 ] } },
    { "type": "Feature", "properties": { "id": 2, "extparkint": "Extérieur", "h_ouvert": "6h", "hfermeture": "2h", "gestion": "Ville de Montpellier", "enservice": "En Service", "pmr": "PMR", "nom": "Esplanade Charles de Gaulle (accessible handicapés)" }, "geometry": { "type": "Point", "coordinates": [ 3.881393729601479, 43.60983673155814 ] } },
    { "type": "Feature", "properties": { "id": 4, "extparkint": "Extérieur", "h_ouvert": "6h", "hfermeture": "2h", "gestion": "Ville de Montpellier", "enservice": "En Service", "pmr": "PMR", "nom": "Place Molière (Opéra Comédie)" }, "geometry": { "type": "Point", "coordinates": [ 3.878356055349656, 43.607465872177869 ] } },
    { "type": "Feature", "properties": { "id": 8, "extparkint": "Extérieur", "h_ouvert": "6h", "hfermeture": "2h", "gestion": "Ville de Montpellier", "enservice": "En Service", "pmr": "PMR", "nom": "Rue de Thèbes (Antigone)" }, "geometry": { "type": "Point", "coordinates": [ 3.888971740393952, 43.607681692823363 ] } },
    { "type": "Feature", "properties": { "id": 5, "extparkint": "Extérieur", "h_ouvert": "6h", "hfermeture": "2h", "gestion": "Ville de Montpellier", "enservice": "En Service", "pmr": "PMR", "nom": "Rue Vallat" }, "geometry": { "type": "Point", "coordinates": [ 3.876534566417638, 43.608824276438199 ] } },
    { "type": "Feature", "properties": { "id": 14, "extparkint": "Extérieur", "h_ouvert": "6h", "hfermeture": "2h", "gestion": "Ville de Montpellier", "enservice": "En Service", "pmr": "PMR", "nom": "Boulevard des Arceaux" }, "geometry": { "type": "Point", "coordinates": [ 3.861859564824633, 43.611773688633065 ] } },
    { "type": "Feature", "properties": { "id": 3, "extparkint": "Extérieur", "h_ouvert": "7h", "hfermeture": "19h", "gestion": "Ville de Montpellier", "enservice": "En Service", "pmr": "PMR", "nom": "Parc Montcalm" }, "geometry": { "type": "Point", "coordinates": [ 3.858968109165285, 43.594702024462897 ] } },
    { "type": "Feature", "properties": { "id": 9, "extparkint": "Extérieur", "h_ouvert": "6h", "hfermeture": "2h", "gestion": "Ville de Montpellier", "enservice": "En Service", "pmr": "PMR", "nom": "Plan Cabanes" }, "geometry": { "type": "Point", "coordinates": [ 3.868570215091764, 43.608709768259054 ] } },
    { "type": "Feature", "properties": { "id": 6, "extparkint": "Extérieur", "h_ouvert": "6h", "hfermeture": "2h", "gestion": "Ville de Montpellier", "enservice": "En Service", "pmr": "PMR", "nom": "Boulevard Henry IV" }, "geometry": { "type": "Point", "coordinates": [ 3.873968367998363, 43.614937777680986 ] } },
    { "type": "Feature", "properties": { "id": 7, "extparkint": "Extérieur", "h_ouvert": "6h", "hfermeture": "2h", "gestion": "Ville de Montpellier", "enservice": "En Service", "pmr": "PMR", "nom": "Corum" }, "geometry": { "type": "Point", "coordinates": [ 3.881848072138943, 43.614096875471233 ] } },
    { "type": "Feature", "properties": { "id": 15, "extparkint": "Extérieur", "h_ouvert": "6h", "hfermeture": "2h", "gestion": "Ville de Montpellier", "enservice": "En Service", "pmr": "PMR", "nom": "Esplanade de Celleneuve" }, "geometry": { "type": "Point", "coordinates": [ 3.830763555929316, 43.613657578296191 ] } },
    { "type": "Feature", "properties": { "id": 10, "extparkint": "Extérieur", "h_ouvert": "7h", "hfermeture": "19h", "gestion": "Ville de Montpellier", "enservice": "En Service", "pmr": "PMR", "nom": "Parc MERIC" }, "geometry": { "type": "Point", "coordinates": [ 3.890487326948376, 43.631790730567872 ] } },
    { "type": "Feature", "properties": { "id": 17, "extparkint": "Extérieur", "h_ouvert": "6h", "hfermeture": "2h", "gestion": "Ville de Montpellier", "enservice": "En Service", "pmr": "PMR", "nom": "Rue Pagezy (Square Planchon)" }, "geometry": { "type": "Point", "coordinates": [ 3.879899068724446, 43.606134835280741 ] } },
    { "type": "Feature", "properties": { "id": 16, "extparkint": "Extérieur", "h_ouvert": "8h", "hfermeture": "18h", "gestion": "Ville de Montpellier", "enservice": "En Service", "pmr": "PMR", "nom": "Parc Clémenceau" }, "geometry": { "type": "Point", "coordinates": [ 3.872091233340194, 43.603705730713514 ] } },
    { "type": "Feature", "properties": { "id": 11, "extparkint": "Extérieur", "h_ouvert": "6h", "hfermeture": "2h", "gestion": "Ville de Montpellier", "enservice": "En Service", "pmr": "PMR", "nom": "Place de Pisistrate (Antigone)" }, "geometry": { "type": "Point", "coordinates": [ 3.894394840046416, 43.608305002987464 ] } },
    { "type": "Feature", "properties": { "id": 13, "extparkint": "Extérieur", "h_ouvert": "6h", "hfermeture": "2h", "gestion": "Ville de Montpellier", "enservice": "En Service", "pmr": "PMR", "nom": "Place Thermidor(Port Mariane)" }, "geometry": { "type": "Point", "coordinates": [ 3.899043924127738, 43.601796275281004 ] } },
    { "type": "Feature", "properties": { "id": 51, "extparkint": "Parking Souterrain", "h_ouvert": "NR", "hfermeture": "NR", "gestion": "EFFIA", "enservice": "En Service", "pmr": "NR", "nom": "Parking Public Arc de Triomph" }, "geometry": { "type": "Point", "coordinates": [ 3.872689756484868, 43.611039621596099 ] } },
    { "type": "Feature", "properties": { "id": 52, "extparkint": "Parking Exterieur", "h_ouvert": "NR", "hfermeture": "NR", "gestion": "EFFIA", "enservice": "En Service", "pmr": "NR", "nom": "Parking Public Arceaux " }, "geometry": { "type": "Point", "coordinates": [ 3.86726856728051, 43.61196093916837 ] } },
    { "type": "Feature", "properties": { "id": 53, "extparkint": "Parking Souterrain", "h_ouvert": "NR", "hfermeture": "NR", "gestion": "TAM", "enservice": "En Service", "pmr": "NR", "nom": "Parking Public Comédie " }, "geometry": { "type": "Point", "coordinates": [ 3.879585628835795, 43.608469513829711 ] } },
    { "type": "Feature", "properties": { "id": 54, "extparkint": "Parking Souterrain", "h_ouvert": "NR", "hfermeture": "NR", "gestion": "EFFIA", "enservice": "En Service", "pmr": "NR", "nom": "Parking Public Foch" }, "geometry": { "type": "Point", "coordinates": [ 3.87647520869545, 43.610800717631932 ] } },
    { "type": "Feature", "properties": { "id": 55, "extparkint": "Parking Intérieur", "h_ouvert": "NR", "hfermeture": "NR", "gestion": "TAM", "enservice": "En Service", "pmr": "NR", "nom": "Parking Public Saint Roch" }, "geometry": { "type": "Point", "coordinates": [ 3.877811798079659, 43.603480312790282 ] } },
    { "type": "Feature", "properties": { "id": 12, "extparkint": "Extérieur", "h_ouvert": "7h", "hfermeture": "19h", "gestion": "Ville de Montpellier", "enservice": "En Service", "pmr": "PMR", "nom": "Parc Tastavin " }, "geometry": { "type": "Point", "coordinates": [ 3.868732395229622, 43.596305763851227 ] } },
    { "type": "Feature", "properties": { "id": 22, "extparkint": "Extérieur", "h_ouvert": "7h", "hfermeture": "19h", "gestion": "Ville de Montpellier", "enservice": "En Service", "pmr": "PMR", "nom": "Parc Rimbaud" }, "geometry": { "type": "Point", "coordinates": [ 3.894263334921661, 43.618446682905365 ] } },
    { "type": "Feature", "properties": { "id": 19, "extparkint": "Extérieur", "h_ouvert": "6h", "hfermeture": "2h", "gestion": "Ville de Montpellier", "enservice": "En Service", "pmr": "PMR", "nom": "Halles Laissac" }, "geometry": { "type": "Point", "coordinates": [ 3.876884403163837, 43.606126815150681 ] } },
    { "type": "Feature", "properties": { "id": 27, "extparkint": "Extérieur", "h_ouvert": "6h", "hfermeture": "2h", "gestion": "Ville de Montpellier", "enservice": "En Service", "pmr": "PMR", "nom": "Près d'Arènes" }, "geometry": { "type": "Point", "coordinates": [ 3.889716998892574, 43.590049623139961 ] } },
    { "type": "Feature", "properties": { "id": 26, "extparkint": "Extérieur", "h_ouvert": " ", "hfermeture": " ", "gestion": "Ville de Montpellier", "enservice": "En Service", "pmr": "PMR", "nom": "Rondelet" }, "geometry": { "type": "Point", "coordinates": [ 3.874728633224693, 43.603192303233087 ] } },
    { "type": "Feature", "properties": { "id": 23, "extparkint": "Extérieur", "h_ouvert": "6h", "hfermeture": "2h", "gestion": "Ville de Montpellier", "enservice": "En Service", "pmr": "PMR", "nom": "Malbosc" }, "geometry": { "type": "Point", "coordinates": [ 3.833103262284106, 43.634496688660789 ] } },
    { "type": "Feature", "properties": { "id": 24, "extparkint": "Extérieur", "h_ouvert": "6h", "hfermeture": "2h", "gestion": "Ville de Montpellier", "enservice": "En Service", "pmr": "PMR", "nom": "Salengro" }, "geometry": { "type": "Point", "coordinates": [ 3.867203239337884, 43.606879215471338 ] } },
    { "type": "Feature", "properties": { "id": 29, "extparkint": "Extérieur", "h_ouvert": " ", "hfermeture": " ", "gestion": "Ville de Montpellier", "enservice": "En Service", "pmr": "PMR", "nom": "Gambetta Saint Denis" }, "geometry": { "type": "Point", "coordinates": [ 3.874174128479599, 43.60553831056847 ] } },
    { "type": "Feature", "properties": { "id": 21, "extparkint": "Extérieur", "h_ouvert": "6h", "hfermeture": "2h", "gestion": "Ville de Montpellier", "enservice": "En Service", "pmr": "PMR", "nom": "SUD GARE (rue des 2 ponts)" }, "geometry": { "type": "Point", "coordinates": [ 3.880085686772631, 43.603238267982157 ] } },
    { "type": "Feature", "properties": { "id": 25, "extparkint": "Extérieur", "h_ouvert": " ", "hfermeture": " ", "gestion": "Ville de Montpellier", "enservice": "En Service", "pmr": "PMR", "nom": "Grisettes" }, "geometry": { "type": "Point", "coordinates": [ 3.859583755692198, 43.583821451968298 ] } },
    { "type": "Feature", "properties": { "id": 18, "extparkint": "Extérieur", "h_ouvert": " ", "hfermeture": " ", "gestion": "Ville de Montpellier", "enservice": "En Service", "pmr": "PMR", "nom": "Mosson" }, "geometry": { "type": "Point", "coordinates": [ 3.817422013594757, 43.628509907211594 ] } }
    ]
    }